<city uid="210" lat="52.2324" lng="21.0127" zoom="11" maps_icon="veturilo" alias="" break="0" name="Warszawa">
<place uid="155801" lat="52.230217725853215" lng="21.01259171962738" name="Al. Jerozolimskie, rejon rotundy" spot="1" number="6310" bikes="5+" bike_racks="28" terminal_type="unknown" bike_numbers="64695,64713,64465,62404,66984" />
<place uid="155806" lat="52.2314251871654" lng="21.0213263332844" name="ul. Nowy Świat - Rondo de Gaulle´a" spot="1" number="6311" bikes="5+" bike_racks="21" terminal_type="unknown" bike_numbers="68385,62391,68272,60260,60272" />
<place uid="155812" lat="52.23848037586037" lng="21.006744503974915" name="ul. Marszałkowska - ul. Królewska" spot="1" number="6307" bikes="5+" bike_racks="15" terminal_type="unknown" bike_numbers="66738,60373,62491,64571,60979" />
<place uid="155814" lat="52.23935090349061" lng="21.01681351661682" name="ul. Traugutta - ul. Krakowskie Przedmieście" spot="1" number="6323" bikes="5+" bike_racks="24" terminal_type="unknown" bike_numbers="68118,62446,67073,62834,61090" />
<place uid="155822" lat="52.24423868113828" lng="21.00161612033844" name="pl. Bankowy" spot="1" number="6304" bikes="1" bike_racks="18" terminal_type="unknown" bike_numbers="61081" />
<place uid="155826" lat="52.24219560301015" lng="20.992990136146545" name="al. Jana Pawła II - al. Solidarności" spot="1" number="6318" bikes="5+" bike_racks="21" terminal_type="unknown" bike_numbers="63521,66763,61073,63252,68153" />
<place uid="155829" lat="52.24710277377028" lng="20.989433526992794" name="al. Jana Pawła II - ul. Anielewicza" spot="1" number="6326" bikes="5+" bike_racks="21" terminal_type="unknown" bike_numbers="68050,67081,64633,60267,68255" />
<place uid="155831" lat="52.235707713687624" lng="20.996793508529663" name="ul. Grzybowska - Al. Jana Pawła II" spot="1" number="6320" bikes="1" bike_racks="21" terminal_type="unknown" bike_numbers="62768" />
<place uid="155835" lat="52.24884675795982" lng="21.005457043647766" name="ul. Bonifraterska - Plac Krasińskich" spot="1" number="6315" bikes="5+" bike_racks="15" terminal_type="unknown" bike_numbers="64545,62200,60340,64865,60343" />
<place uid="155837" lat="52.2375474140858" lng="21.0257023572922" name="ul. Topiel - ul. Tamka" spot="1" number="6313" bikes="5+" bike_racks="22" terminal_type="unknown" bike_numbers="62227,64585,61133,66696,62752" />
<place uid="155848" lat="52.25764445766444" lng="20.994502902030945" name="ul. Słomińskiego - Metro Dw. Gdański" spot="1" number="6300" bikes="5+" bike_racks="20" terminal_type="unknown" bike_numbers="64425,62389,63712,60988,67080" />
<place uid="155859" lat="52.2541078541912" lng="20.998107790947" name="ul. Andersa - ul. Muranowska" spot="1" number="6301" bikes="5+" bike_racks="21" terminal_type="unknown" bike_numbers="66853,63452,64248,67944,68239" />
<place uid="155866" lat="52.25138542973338" lng="20.985780358314514" name="al. Jana Pawła II - ul. Stawki" spot="1" number="6321" bikes="0" bike_racks="21" terminal_type="unknown" />
<place uid="155876" lat="52.23388436394939" lng="21.030020713806152" name="Al. 3-go Maja, rejon Dw. Powiśle" spot="1" number="6312" bikes="5+" bike_racks="26" terminal_type="unknown" bike_numbers="66728,68137,62679,63172,60791" />
<place uid="155894" lat="52.238608492319024" lng="20.995774269104004" name="al. Jana Pawła II - pl. Mirowski" spot="1" number="6319" bikes="4" bike_racks="15" terminal_type="unknown" bike_numbers="67023,62602,62474,63053" />
<place uid="155895" lat="52.243516059754675" lng="21.006712317466736" name="ul. Senatorska - Bielańska" spot="1" number="6306" bikes="5+" bike_racks="15" terminal_type="unknown" bike_numbers="66734,60807,60448,60818,61036" />
<place uid="155911" lat="52.23365110119173" lng="21.02034866809845" name="ul. Gałczyńskiego - ul. Foksal" spot="1" number="6327" bikes="1" bike_racks="21" terminal_type="unknown" bike_numbers="67016" />
<place uid="155918" lat="52.235162359274504" lng="21.008772253990173" name="ul. Świętokrzyska - Sezam" spot="1" number="6325" bikes="3" bike_racks="15" terminal_type="unknown" bike_numbers="60614,60513,63204" />
<place uid="155919" lat="52.254117705846" lng="21.0093784332275" name="ul. Kościelna - Nowe Miasto" spot="1" number="6328" bikes="1" bike_racks="24" terminal_type="unknown" bike_numbers="68160" />
<place uid="155922" lat="52.23196894473187" lng="21.016164422035217" name="ul. Bracka - ul. Krucza" spot="1" number="6309" bikes="4" bike_racks="18" terminal_type="unknown" bike_numbers="60969,62372,63687,67000" />
<place uid="155925" lat="52.24308248127586" lng="21.001771688461304" name="pl. Bankowy, rejon Ratusza" spot="1" number="6303" bikes="5+" bike_racks="18" terminal_type="unknown" bike_numbers="66788,61003,62563,68374,62395" />
<place uid="155929" lat="52.24491859142194" lng="21.001262068748474" name="ul. Andersa, rejon Pl. Bankowego i ul. Długiej" spot="1" number="6305" bikes="1" bike_racks="20" terminal_type="unknown" bike_numbers="67083" />
<place uid="155930" lat="52.24920802671565" lng="20.997206568717957" name="ul. Anielewicza - Andersa" spot="1" number="6317" bikes="5+" bike_racks="18" terminal_type="unknown" bike_numbers="68171,68115,62851,66944,62458" />
<place uid="155933" lat="52.23831283839485" lng="21.018412113189697" name="ul. Oboźna - ul. Kopernika" spot="1" number="6314" bikes="3" bike_racks="15" terminal_type="unknown" bike_numbers="68248,68304,68350" />
<place uid="155935" lat="52.24129885251972" lng="21.028132438659668" name="Wybrzeże Kościuszkowskie - Centrum Nauki Kopernik" spot="1" number="6329" bikes="5+" bike_racks="13" terminal_type="unknown" bike_numbers="68341,64833,61080,60861,66773" />
<place uid="155942" lat="52.23462028348882" lng="21.034199595451355" name="ul. Solec przy Al.3-go Maja" spot="1" number="6330" bikes="5+" bike_racks="24" terminal_type="unknown" bike_numbers="68307,64926,68223,63450,67977" />
<place uid="155948" lat="52.24627509626952" lng="21.01130962371826" name="ul. Miodowa" spot="1" number="6316" bikes="5+" bike_racks="24" terminal_type="unknown" bike_numbers="67915,66766,64834,64769,62215" />
<place uid="155972" lat="52.3126307298567" lng="20.9178936481476" name="UKSW - ul. Wóycickiego 1" spot="1" number="63511" bikes="5+" bike_racks="15" terminal_type="unknown" bike_numbers="60433,68224,62759,62356,61198" />
<place uid="155973" lat="52.3125782570109" lng="20.9176898002625" name="UKSW - ul. Wóycickiego" spot="1" number="6351" bikes="5+" bike_racks="15" terminal_type="unknown" bike_numbers="60293,62728,63954,68258,68181" />
<place uid="155974" lat="52.295048846244704" lng="20.959478616714478" name="UKSW II 1" spot="1" number="63521" bikes="5+" bike_racks="21" terminal_type="unknown" bike_numbers="60875,66955,60953,61062,61440" />
<place uid="155975" lat="52.2951013398688" lng="20.9594786167145" name="UKSW II " spot="1" number="6352" bikes="5+" bike_racks="21" terminal_type="unknown" bike_numbers="62462,60646,62407,60793,63346" />
<place uid="155985" lat="52.28153623103404" lng="20.94995141029358" name="Metro Stare Bielany ul. Kasprowicza 1" spot="1" number="63311" bikes="5+" bike_racks="18" terminal_type="unknown" bike_numbers="62348,68082,64824,61422,62436" />
<place uid="155987" lat="52.2816642231669" lng="20.94968855381012" name="Metro Stare Bielany ul. Kasprowicza" spot="1" number="6331" bikes="5+" bike_racks="18" terminal_type="unknown" bike_numbers="68026,64892,63254,62294,60317" />
<place uid="155989" lat="52.276245566098574" lng="20.961399078369137" name="Metro Słodowiec 1" spot="1" number="63321" bikes="1" bike_racks="21" terminal_type="unknown" bike_numbers="68189" />
<place uid="155990" lat="52.2760716067128" lng="20.9617102146149" name="Metro Słodowiec" spot="1" number="6332" bikes="5+" bike_racks="21" terminal_type="unknown" bike_numbers="61439,62341,63676,68123,66727" />
<place uid="155996" lat="52.2768232376509" lng="20.9479880332947" name="Urząd Dzielnicy Bielany - ul. Żeromskiego" spot="1" number="6335" bikes="5+" bike_racks="21" terminal_type="unknown" bike_numbers="66811,62550,68180,61419,60442" />
<place uid="155997" lat="52.27054722055992" lng="20.95041275024414" name="ul. Broniewskiego - ul. Perzyńskiego" spot="1" number="6336" bikes="5+" bike_racks="16" terminal_type="unknown" bike_numbers="68268,62334,64729,67938,67955" />
<place uid="155998" lat="52.2710396180402" lng="20.930580496788" name="ul. Conrada" spot="1" number="6337" bikes="5+" bike_racks="21" terminal_type="unknown" bike_numbers="62381,63266,68233,63184,68235" />
<place uid="156004" lat="52.1621525855968" lng="21.0280680656433" name="Metro Ursynów - ul. Beli Bartoka I 1" spot="1" number="63381" bikes="1" bike_racks="20" terminal_type="unknown" bike_numbers="63725" />
<place uid="156005" lat="52.1622513061534" lng="21.0280895233154" name="Metro Ursynów - ul. Beli Bartoka I" spot="1" number="6338" bikes="3" bike_racks="20" terminal_type="unknown" bike_numbers="68127,62536,62715" />
<place uid="156007" lat="52.1617741547678" lng="21.0278052091599" name="Metro Ursynów - ul. Beli Bartoka II 1" spot="1" number="63391" bikes="5+" bike_racks="14" terminal_type="unknown" bike_numbers="64826,67010,61454,60407,62415" />
<place uid="156008" lat="52.1617692186922" lng="21.0276791453362" name="Metro Ursynów - ul. Beli Bartoka II" spot="1" number="6339" bikes="5+" bike_racks="20" terminal_type="unknown" bike_numbers="60332,62996,67988,61055,64872" />
<place uid="156012" lat="52.156887171951" lng="21.0337328910828" name="Metro Stokłosy - Al. Komisji Edukacji Narodowej" spot="1" number="6340" bikes="5+" bike_racks="21" terminal_type="unknown" bike_numbers="64754,60736,61024,60841,66761" />
<place uid="156014" lat="52.16244874660971" lng="21.03833556175232" name="SGGW I 1" spot="1" number="63411" bikes="2" bike_racks="20" terminal_type="unknown" bike_numbers="63429,62423" />
<place uid="156015" lat="52.1571208378892" lng="21.0442686080933" name="SGGW II 1" spot="1" number="63421" bikes="3" bike_racks="19" terminal_type="unknown" bike_numbers="60971,68359,66912" />
<place uid="156016" lat="52.1572557711822" lng="21.0439360141754" name="SGGW II" spot="1" number="6342" bikes="5+" bike_racks="21" terminal_type="unknown" bike_numbers="62905,61088,60318,62342,63814" />
<place uid="156019" lat="52.1427217636099" lng="21.0448050498962" name="ul. Dereniowa - ul. Płaskowickiej" spot="1" number="6343" bikes="5+" bike_racks="20" terminal_type="unknown" bike_numbers="66860,67006,61001,62572,63519" />
<place uid="156020" lat="52.1492051326616" lng="21.0454595088959" name="Metro Imielin - Ratusz Ursynów" spot="1" number="6344" bikes="3" bike_racks="10" terminal_type="unknown" bike_numbers="60434,62266,64568" />
<place uid="156022" lat="52.14267402776558" lng="21.038373112678528" name="ul. Pileckiego - ul. Alternatywy" spot="1" number="6345" bikes="5+" bike_racks="20" terminal_type="unknown" bike_numbers="62277,68326,67079,60454,64776" />
<place uid="156023" lat="52.1494684635744" lng="21.0332715511322" name="ul. Ciszewskiego - ul. Pileckiego" spot="1" number="6346" bikes="1" bike_racks="20" terminal_type="unknown" bike_numbers="62553" />
<place uid="156024" lat="52.1520885213144" lng="21.0181519389153" name="ul. Puławska - ul. Pileckiego" spot="1" number="6347" bikes="5+" bike_racks="20" terminal_type="unknown" bike_numbers="60581,62740,60540,62332,62518" />
<place uid="156026" lat="52.1557303429351" lng="21.0233715176582" name="ul. Romera - ul. Pieciolinii" spot="1" number="6348" bikes="3" bike_racks="16" terminal_type="unknown" bike_numbers="62444,63265,62124" />
<place uid="156029" lat="52.1548532391624" lng="21.0493111610413" name="ul. Rosoła - ul. Gandhi" spot="1" number="6349" bikes="5+" bike_racks="20" terminal_type="unknown" bike_numbers="60492,68247,61102,63046,63485" />
<place uid="156030" lat="52.1521740984895" lng="21.0563278198242" name="ul. Rosoła - ul. Wesoła" spot="1" number="6350" bikes="4" bike_racks="21" terminal_type="unknown" bike_numbers="63029,61421,62631,60514" />
<place uid="156817" lat="52.16008598500546" lng="21.071643233299252" name="ul. Ks. Hlonda" spot="1" number="6355" bikes="5+" bike_racks="16" terminal_type="unknown" bike_numbers="66942,64938,67947,62892,62216" />
<place uid="156880" lat="52.244573710696" lng="20.9999907016754" name="Metro Ratusz Arsenał Południowy" spot="1" number="6302" bikes="1" bike_racks="15" terminal_type="unknown" bike_numbers="68135" />
<place uid="156882" lat="52.23965640536594" lng="21.01184606552124" name="ul. Królewska- Plac Małachowskiego" spot="1" number="6308" bikes="1" bike_racks="15" terminal_type="unknown" bike_numbers="60749" />
<place uid="156899" lat="52.22820028864685" lng="21.017950773239136" name="ul. Krucza - ul. Wspólna" spot="1" number="6322" bikes="5+" bike_racks="21" terminal_type="unknown" bike_numbers="60370,68333,66745,66692,62878" />
<place uid="164133" lat="52.23927206395559" lng="21.01672768592834" name="ul. Traugutta - ul. Krakowskie Przedmieście 1" spot="1" number="63231" bikes="5+" bike_racks="24" terminal_type="unknown" bike_numbers="60333,64691,62452,60612,62447" />
<place uid="164138" lat="52.23927863392218" lng="21.016899347305298" name="ul. Traugutta - ul. Krakowskie Przedmieście 2" spot="1" number="63232" bikes="5+" bike_racks="24" terminal_type="unknown" bike_numbers="63366,64704,63299,68252,62234" />
<place uid="164466" lat="52.16234344514205" lng="21.038432121276852" name="SGGW I" spot="1" number="6341" bikes="5+" bike_racks="14" terminal_type="unknown" bike_numbers="62346,60620,66767,60418,60828" />
<place uid="171094" lat="52.1654299910244" lng="21.0839921236038" name="ul. Przyczółkowa - Al. Wilanowska " spot="1" number="6356" bikes="5+" bike_racks="16" terminal_type="unknown" bike_numbers="60382,66730,64480,60941,62366" />
<place uid="187671" lat="52.2559960480504" lng="20.9833288192749" name="Arkadia" spot="1" number="6357" bikes="5+" bike_racks="35" terminal_type="unknown" bike_numbers="60531,62749,61118,64628,68184" />
<place uid="203448" lat="52.2280425698225" lng="21.0049796104431" name="Al. Jerozolimskie/ul.E. Plater (Mariott)" spot="1" number="6358" bikes="5+" bike_racks="20" terminal_type="unknown" bike_numbers="66927,61140,61436,68145,62848" />
<place uid="203449" lat="52.21984041887858" lng="21.011738777160645" name="Plac Politechniki-ul. Nowowiejska" spot="1" number="6359" bikes="5+" bike_racks="26" terminal_type="unknown" bike_numbers="64983,67004,68092,60473,66698" />
<place uid="203450" lat="52.2199094336799" lng="21.0256862640381" name="Trasa Armii Ludowej, rejon Placu na Rozdrożu" spot="1" number="6360" bikes="1" bike_racks="25" terminal_type="unknown" bike_numbers="60802" />
<place uid="203451" lat="52.2173886806455" lng="21.0140991210938" name="Metro Politechnika-Rondo Jazdy Polskiej" spot="1" number="6361" bikes="5+" bike_racks="20" terminal_type="unknown" bike_numbers="68013,64816,64718,62455,60397" />
<place uid="203452" lat="52.227838848845245" lng="21.023545861244198" name="Plac Trzech Krzyży" spot="1" number="6362" bikes="5+" bike_racks="18" terminal_type="unknown" bike_numbers="60338,64450,62145,64485,61445" />
<place uid="203454" lat="52.2228933996631" lng="21.0157929360867" name="Plac Konstytucji" spot="1" number="6363" bikes="3" bike_racks="25" terminal_type="unknown" bike_numbers="66718,62598,66933" />
<place uid="203456" lat="52.2197311452238" lng="21.0157366096973" name="ul. Waryńskiego-ul. Nowowiejska-Metro Politechnika" spot="1" number="6364" bikes="3" bike_racks="14" terminal_type="unknown" bike_numbers="61123,60487,62746" />
<place uid="203457" lat="52.2328855964877" lng="21.0101723670959" name="ul. Marszałkowska, rejon ul. Złotej" spot="1" number="6365" bikes="5+" bike_racks="20" terminal_type="unknown" bike_numbers="66787,68356,61416,61009,68293" />
<place uid="203458" lat="52.2225935332893" lng="21.0081821680069" name="ul. Noakowskiego-ul.Koszykowa" spot="1" number="6366" bikes="5+" bike_racks="20" terminal_type="unknown" bike_numbers="67953,62189,68025,62877,68231" />
<place uid="203459" lat="52.2293330547814" lng="21.0113243758678" name="ul. Marszałkowska - Al. Jerozolimskie" spot="1" number="6367" bikes="2" bike_racks="20" terminal_type="unknown" bike_numbers="62795,60266" />
<place uid="203461" lat="52.25244946111211" lng="21.030390858650208" name="ul. Floriańska- rejon Bazyliki Św. Floriana" spot="1" number="6369" bikes="0" bike_racks="20" terminal_type="unknown" />
<place uid="203462" lat="52.173224376111214" lng="21.025707721710205" name="ul. Wałbrzyska Al. KEN - Metro Służew" spot="1" number="6370" bikes="2" bike_racks="20" terminal_type="unknown" bike_numbers="68183,63512" />
<place uid="203464" lat="52.26126286311156" lng="21.015660166740414" name="ul. Wybrzeże Helskie- Zoo- Wejście PN" spot="1" number="6371" bikes="5+" bike_racks="14" terminal_type="unknown" bike_numbers="62248,64861,66710,64889,62196" />
<place uid="203465" lat="52.25273845288172" lng="21.051108241081238" name="ul. Kijowska-Dworzec Wschodni" spot="1" number="6372" bikes="5+" bike_racks="18" terminal_type="unknown" bike_numbers="64458,63285,60881,68204,61113" />
<place uid="203466" lat="52.2471881681893" lng="21.0476079583168" name="Rondo Waszyngtona- Stadion Narodowy" spot="1" number="6373" bikes="5+" bike_racks="12" terminal_type="unknown" bike_numbers="62640,62773,61426,62481,66997" />
<place uid="203467" lat="52.2386479126934" lng="21.0507220029831" name="Rondo Waszyngtona - Stadion Narodowy" spot="1" number="6374" bikes="5+" bike_racks="20" terminal_type="unknown" bike_numbers="62435,62385,62774,60523,60698" />
<place uid="203468" lat="52.2300189433596" lng="21.0109367966652" name="Al. Jerozolimskie- Metro Centrum" spot="1" number="6375" bikes="5+" bike_racks="30" terminal_type="unknown" bike_numbers="60743,60727,60686,66962,62472" />
<place uid="203469" lat="52.2197533286191" lng="21.0174143314362" name="Plac Zbawiciela- Nowowiejska- Mokotowska" spot="1" number="6376" bikes="2" bike_racks="12" terminal_type="unknown" bike_numbers="60908,63333" />
<place uid="203475" lat="52.2248486430822" lng="21.00315570831299" name="Oczki- Akademia Medyczna" spot="1" number="6378" bikes="3" bike_racks="18" terminal_type="unknown" bike_numbers="61139,62457,68397" />
<place uid="203477" lat="52.2248486430822" lng="20.9897929430008" name="Al. Jerozolimskie- Plac Zawiszy" spot="1" number="6379" bikes="3" bike_racks="24" terminal_type="unknown" bike_numbers="63287,64579,68041" />
<place uid="203478" lat="52.21654072895435" lng="20.987995862960815" name="ul. Raszyńska- Pomnik Lotnika" spot="1" number="6380" bikes="1" bike_racks="12" terminal_type="unknown" bike_numbers="61033" />
<place uid="203480" lat="52.2235070924771" lng="21.0128907859325" name="ul. Poznańska- Zespół Szkół Gastronomicznych" spot="1" number="6381" bikes="2" bike_racks="18" terminal_type="unknown" bike_numbers="62890,68090" />
<place uid="203481" lat="52.2363614730989" lng="21.00733995437622" name="ul. Marszałkowska- Metro Świętokrzyska" spot="1" number="6382" bikes="5+" bike_racks="28" terminal_type="unknown" bike_numbers="62449,62636,68236,67952,64417" />
<place uid="203486" lat="52.25368423096414" lng="21.032965779304504" name="Al. Solidarności- LO Władysława IV" spot="1" number="6383" bikes="4" bike_racks="18" terminal_type="unknown" bike_numbers="66897,62707,63747,62396" />
<place uid="203487" lat="52.25373348968678" lng="21.02287530899048" name="ul. Ratuszowa- ZOO- wejście PD" spot="1" number="6384" bikes="5+" bike_racks="18" terminal_type="unknown" bike_numbers="68178,60525,63703,67070,68209" />
<place uid="203488" lat="52.26140404717611" lng="21.03057861328125" name="Pl. Hallera- Dąbrowszczaków" spot="1" number="6385" bikes="5+" bike_racks="24" terminal_type="unknown" bike_numbers="60851,60859,64690,63383,60560" />
<place uid="203489" lat="52.2365388734892" lng="21.0648250579834" name="ul. Międzynarodowa - Walecznych" spot="1" number="6386" bikes="5+" bike_racks="12" terminal_type="unknown" bike_numbers="60839,60876,63108,63952,67940" />
<place uid="203490" lat="52.23469913128726" lng="21.05358123779297" name="ul. Francuska- Walecznych" spot="1" number="6387" bikes="5+" bike_racks="15" terminal_type="unknown" bike_numbers="63794,62844,68312,61134,64986" />
<place uid="203491" lat="52.2417948596094" lng="21.0241627693176" name="ul. Lipowa- Dobra" spot="1" number="6388" bikes="5+" bike_racks="20" terminal_type="unknown" bike_numbers="61415,61069,62666,62599,64840" />
<place uid="203492" lat="52.2358481577903" lng="21.0038611292839" name="Pl. Grzybowski - Próżna" spot="1" number="6389" bikes="4" bike_racks="24" terminal_type="unknown" bike_numbers="60493,62413,67030,66924" />
<place uid="203493" lat="52.2131660166141" lng="21.0211506485939" name="Pl. Unii Lubelskiej - Puławska" spot="1" number="6390" bikes="5+" bike_racks="24" terminal_type="unknown" bike_numbers="62315,64440,63279,63826,61120" />
<place uid="203495" lat="52.2220669137432" lng="21.0343900322914" name="ul. Myśliwiecka- LO Stefana Batorego" spot="1" number="6391" bikes="5+" bike_racks="20" terminal_type="unknown" bike_numbers="60634,62382,62758,60411,68196" />
<place uid="203496" lat="52.238782598708504" lng="20.91397225856781" name="Ratusz Bemowo" spot="1" number="6392" bikes="5+" bike_racks="12" terminal_type="unknown" bike_numbers="66854,60707,62478,62534,64607" />
<place uid="203509" lat="52.26312776985749" lng="21.021416187286373" name="Rondo Starzyńskiego" spot="1" number="6393" bikes="4" bike_racks="24" terminal_type="unknown" bike_numbers="68207,68214,63501,62267" />
<place uid="203513" lat="52.2337463776774" lng="21.002790927887" name="ul. Emilii Plater - Świętokrzyska" spot="1" number="6394" bikes="5+" bike_racks="16" terminal_type="unknown" bike_numbers="64498,60410,62717,66936,62561" />
<place uid="203516" lat="52.22915973275686" lng="21.005381941795346" name="ul. Emilii Plater- Al. Jerozolimskie" spot="1" number="6395" bikes="5+" bike_racks="30" terminal_type="unknown" bike_numbers="63060,62141,62564,64563,64463" />
<place uid="203521" lat="52.22621233332533" lng="20.99614977836609" name="ul. Lindleya- Al. Jerozolimskie" spot="1" number="6396" bikes="5+" bike_racks="14" terminal_type="unknown" bike_numbers="60840,62380,68371,68152,60886" />
<place uid="203523" lat="52.2179128907448" lng="20.9828272461891" name="ul. Grójecka- Pl. Narutowicza" spot="1" number="6397" bikes="5+" bike_racks="30" terminal_type="unknown" bike_numbers="63702,63594,68376,64999,67902" />
<place uid="203524" lat="52.21787180867202" lng="20.977578163146973" name="ul. Białobrzeska- Kopińska" spot="1" number="6398" bikes="3" bike_racks="15" terminal_type="unknown" bike_numbers="68034,62830,66711" />
<place uid="203525" lat="52.24450144963282" lng="21.08378291130066" name="Rondo Wiatraczna" spot="1" number="6399" bikes="5+" bike_racks="12" terminal_type="unknown" bike_numbers="66809,62505,62428,67025,64677" />
<place uid="203527" lat="52.23689695730212" lng="21.017639636993408" name="ul. Świętokrzyska rejon Nowego Światu" spot="1" number="6401" bikes="5+" bike_racks="16" terminal_type="unknown" bike_numbers="62150,68111,61041,64942,63907" />
<place uid="203528" lat="52.243575183764456" lng="21.01413130760193" name="ul. Trębacka- Krakowskie Przedmieście" spot="1" number="6402" bikes="2" bike_racks="12" terminal_type="unknown" bike_numbers="62729,68325" />
<place uid="203529" lat="52.23550731314584" lng="21.01809561252594" name="ul. Warecka- Nowy Świat" spot="1" number="6403" bikes="5+" bike_racks="28" terminal_type="unknown" bike_numbers="62148,60782,66794,61115,60462" />
<place uid="203530" lat="52.223747802336106" lng="21.020745635032654" name="ul. Mokotowska - ul. Piękna" spot="1" number="6404" bikes="5+" bike_racks="20" terminal_type="unknown" bike_numbers="62445,68097,64436,67964,66905" />
<place uid="203531" lat="52.13106776117692" lng="21.06556534767151" name="ul. Wąwozowa- Al. KEN- Metro Kabaty" spot="1" number="6405" bikes="3" bike_racks="20" terminal_type="unknown" bike_numbers="63710,61110,67084" />
<place uid="203532" lat="52.1402575395535" lng="21.0569125413895" name="Al. Komisji Edukacji Narodowej- Metro Natolin" spot="1" number="6406" bikes="5+" bike_racks="20" terminal_type="unknown" bike_numbers="60534,67027,68098,62832,68290" />
<place uid="203533" lat="52.2345611475481" lng="20.990667343139645" name="ul. Grzybowska- Żelazna" spot="1" number="6407" bikes="1" bike_racks="20" terminal_type="unknown" bike_numbers="68033" />
<place uid="203534" lat="52.2558745493" lng="21.0098960995674" name="ul. Wybrzeże Gdańskie- Sanguszki- Skwer 1 Dywizji Pancernej" spot="1" number="6408" bikes="5+" bike_racks="15" terminal_type="unknown" bike_numbers="67908,60465,64744,68292,67939" />
<place uid="203535" lat="52.27137444520264" lng="20.97262144088745" name="ul. Słowackiego- Metro Marymont" spot="1" number="6409" bikes="4" bike_racks="21" terminal_type="unknown" bike_numbers="64779,62204,66705,62313" />
<place uid="203536" lat="52.2623069578896" lng="20.980281829834" name="Al. Jana Pawła II- Plac Grunwaldzki" spot="1" number="6410" bikes="5+" bike_racks="30" terminal_type="unknown" bike_numbers="64775,62748,61446,60269,60579" />
<place uid="203537" lat="52.26442790492038" lng="20.989594459533688" name="Plac Inwalidów" spot="1" number="6411" bikes="5+" bike_racks="12" terminal_type="unknown" bike_numbers="67012,60864,64484,60351,64903" />
<place uid="203539" lat="52.2298176957136" lng="20.993977189064" name="ul. Żelazna - ul. Sienna" spot="1" number="6412" bikes="5+" bike_racks="24" terminal_type="unknown" bike_numbers="61072,60938,62374,61067,64415" />
<place uid="203540" lat="52.2401409335974" lng="20.9878054261208" name="Al. Solidarności- Urząd Dzielnicy Wola" spot="1" number="6413" bikes="4" bike_racks="12" terminal_type="unknown" bike_numbers="60885,68009,66721,64707" />
<place uid="203542" lat="52.2248880756772" lng="21.026930809021" name="ul. Matejki-Wiejska" spot="1" number="6414" bikes="2" bike_racks="20" terminal_type="unknown" bike_numbers="62287,68396" />
<place uid="203543" lat="52.23725503822611" lng="20.98886489868164" name="ul. Chłodna-Żelazna" spot="1" number="6415" bikes="1" bike_racks="14" terminal_type="unknown" bike_numbers="63729" />
<place uid="203545" lat="52.1743988442479" lng="21.0128492116928" name="Al. Lotników- Modzelewskiego" spot="1" number="6416" bikes="5+" bike_racks="24" terminal_type="unknown" bike_numbers="62303,60928,63894,60329,64447" />
<place uid="203546" lat="52.1800618456735" lng="21.0208381712437" name="Al. Niepodległości- Wilanowska" spot="1" number="6417" bikes="5+" bike_racks="20" terminal_type="unknown" bike_numbers="68337,66992,68164,66768,63223" />
<place uid="203547" lat="52.23584240862528" lng="21.01359486579895" name="pl. Powstańców Warszawy" spot="1" number="6418" bikes="4" bike_racks="18" terminal_type="unknown" bike_numbers="60704,66934,60566,66709" />
<place uid="203550" lat="52.2901699484755" lng="20.9503228962421" name="ul. Marymoncka- Dewajtis" spot="1" number="6421" bikes="5+" bike_racks="30" terminal_type="unknown" bike_numbers="67974,68314,64400,62616,62276" />
<place uid="203551" lat="52.26689674334066" lng="21.058607697486877" name="ul. Radzymińska- Piotra Skargi" spot="1" number="6422" bikes="5+" bike_racks="20" terminal_type="unknown" bike_numbers="60962,68121,64464,68273,68101" />
<place uid="203552" lat="52.210670355885966" lng="20.98487913608551" name="ul. Stefana Banacha- Uniwersytet Warszawski" spot="1" number="6423" bikes="2" bike_racks="31" terminal_type="unknown" bike_numbers="60445,68217" />
<place uid="203553" lat="52.212984414159" lng="20.9820520877838" name="ul. Pasteura- Winnicka- UW" spot="1" number="6424" bikes="2" bike_racks="23" terminal_type="unknown" bike_numbers="67096,64989" />
<place uid="203554" lat="52.25823878953007" lng="21.035267114639282" name="ul. Stalowa- ul. 11-go Listopada" spot="1" number="6425" bikes="5+" bike_racks="20" terminal_type="unknown" bike_numbers="61431,63554,60996,63023,61093" />
<place uid="203555" lat="52.29079009373927" lng="20.929625630378723" name="Metro Młociny" spot="1" number="6426" bikes="5+" bike_racks="20" terminal_type="unknown" bike_numbers="62194,63800,62300,62825,62206" />
<place uid="203610" lat="52.254649691956814" lng="21.04408085346222" name="Fabryka Wódek Koneser" spot="1" number="6419" bikes="5+" bike_racks="24" terminal_type="unknown" bike_numbers="60667,68271,68392,63256,67054" />
<place uid="204160" lat="52.18691799737384" lng="20.89069604873657" name="OSiR Ursus" spot="1" number="6490" bikes="5+" bike_racks="15" terminal_type="unknown" bike_numbers="60326,67061,68317,60746,66896" />
<place uid="204182" lat="52.22769427210073" lng="21.044209599494934" name="Port Czerniakowski" spot="1" number="6428" bikes="5+" bike_racks="15" terminal_type="unknown" bike_numbers="60637,61021,68132,62532,66769" />
<place uid="205095" lat="52.210768968782624" lng="20.9759259223938" name="ul. Grójecka- Bitwy Warszawskiej 1920 roku" spot="1" number="6427" bikes="5+" bike_racks="15" terminal_type="unknown" bike_numbers="60684,67022,63026,60265,62541" />
<place uid="207615" lat="52.23278046176347" lng="20.997651815414425" name="ul. Świętokrzyska - Rejon Ronda ONZ" spot="1" number="6377" bikes="1" bike_racks="30" terminal_type="unknown" bike_numbers="66868" />
<place uid="208154" lat="52.21984041887858" lng="21.011695861816406" name="Plac Politechniki-ul. Nowowiejska 1" spot="1" number="63591" bikes="5+" bike_racks="24" terminal_type="unknown" bike_numbers="68265,61448,62250,60651,67007" />
<place uid="210320" lat="52.2099077420935" lng="21.0068035125732" name="Al. Niepodległości - Batorego" spot="1" number="6420" bikes="3" bike_racks="10" terminal_type="unknown" bike_numbers="61048,61005,64558" />
<place uid="211084" lat="52.2300813710155" lng="21.0302916169167" name="ul. Książęca- Rozbrat" spot="1" number="6400" bikes="5+" bike_racks="15" terminal_type="unknown" bike_numbers="68020,68055,63837,66906,60842" />
<place uid="211182" lat="52.25751639616425" lng="20.99452972412109" name="ul. Słomińskiego - Metro Dw. Gdański 1" spot="1" number="63001" bikes="2" bike_racks="14" terminal_type="unknown" bike_numbers="63945,67968" />
<place uid="212365" lat="52.25047244419387" lng="21.03128671646118" name="ul. Sierakowskiego- ul. Kłopotowskiego" spot="1" number="6368" bikes="5+" bike_racks="20" terminal_type="unknown" bike_numbers="62459,60895,62471,62160,66983" />
<place uid="214514" lat="52.267658378510085" lng="21.002297401428223" name="KS Spójnia" spot="1" number="6429" bikes="5+" bike_racks="15" terminal_type="unknown" bike_numbers="66775,60412,63157,64622,60483" />
<place uid="216201" lat="52.3210600127435" lng="20.971288383007" name="ul. Produkcyjna - ul. Modlińska " spot="1" number="6430" bikes="5+" bike_racks="16" terminal_type="unknown" bike_numbers="66816,64520,68045,64630,68212" />
<place uid="216202" lat="52.332500346975" lng="20.9407916665077" name="Hanki Ordonówny" spot="1" number="6431" bikes="5+" bike_racks="14" terminal_type="unknown" bike_numbers="63825,64497,62308,60509,68095" />
<place uid="216203" lat="52.31321448607098" lng="20.965529680252075" name="Myśliborska - Trasa Mostu Marii Skłodowskiej-Curie" spot="1" number="6432" bikes="5+" bike_racks="16" terminal_type="unknown" bike_numbers="60501,62473,61095,62535,62966" />
<place uid="216204" lat="52.3148509301452" lng="21.061123609542843" name="Skarbka z Gór" spot="1" number="6433" bikes="4" bike_racks="14" terminal_type="unknown" bike_numbers="60763,60519,62192,62425" />
<place uid="216205" lat="52.269332616724064" lng="20.98337173461914" name="Plac Wilsona" spot="1" number="6434" bikes="1" bike_racks="15" terminal_type="unknown" bike_numbers="61451" />
<place uid="216206" lat="52.276271824059776" lng="20.98367214202881" name="Potocka" spot="1" number="6435" bikes="5+" bike_racks="15" terminal_type="unknown" bike_numbers="62866,60981,60268,63233,62174" />
<place uid="216207" lat="52.2672184701377" lng="20.9623968601227" name="ul. Broniewskiego - ul. Włościańska" spot="1" number="6436" bikes="4" bike_racks="14" terminal_type="character" bike_numbers="67050,64791,68039,68032" />
<place uid="216208" lat="52.1559985719703" lng="20.9962141513824" name="Poleczki - Business Park" spot="1" number="6437" bikes="0" bike_racks="15" terminal_type="unknown" />
<place uid="216209" lat="52.2835315535238" lng="21.07213139534" name="ul. Blokowa- DK Zacisze" spot="1" number="6438" bikes="5+" bike_racks="16" terminal_type="unknown" bike_numbers="67024,60860,68043,64245,60770" />
<place uid="216210" lat="52.2939628704402" lng="21.0273116827011" name="ul. Rembielińska - Kondratowicza" spot="1" number="6439" bikes="5+" bike_racks="20" terminal_type="unknown" bike_numbers="60364,63380,62618,68336,68220" />
<place uid="216212" lat="52.26901418805055" lng="21.03793859481811" name="Rondo Żaba - ul. Św. Wincentego" spot="1" number="6440" bikes="5+" bike_racks="20" terminal_type="unknown" bike_numbers="68172,60505,68089,63259,63965" />
<place uid="216213" lat="52.27231654335543" lng="21.049869060516357" name="ul. Kołowa - Teatr Rampa" spot="1" number="6441" bikes="5+" bike_racks="12" terminal_type="unknown" bike_numbers="61438,67086,62242,62377,68110" />
<place uid="216214" lat="52.29162022169387" lng="21.048860549926758" name="ul. Kondratowicza - Urząd Dzielnicy Targówek" spot="1" number="6442" bikes="5+" bike_racks="20" terminal_type="unknown" bike_numbers="62556,60623,62419,62427,66800" />
<place uid="216215" lat="52.2866359391383" lng="21.040256023407" name="ul. Chodecka - ul. Żuromińska" spot="1" number="6443" bikes="5+" bike_racks="15" terminal_type="unknown" bike_numbers="64676,60331,62388,63767,60729" />
<place uid="216216" lat="52.17855364649343" lng="21.002769470214844" name="Galeria Mokotów" spot="1" number="6444" bikes="5+" bike_racks="20" terminal_type="unknown" bike_numbers="60273,63305,60878,68243,63281" />
<place uid="219805" lat="52.1882400983785" lng="20.9603476524353" name="OSiR Włochy" spot="1" number="6445" bikes="4" bike_racks="15" terminal_type="unknown" bike_numbers="68104,60608,60587,67957" />
<place uid="220679" lat="52.1331653444223" lng="21.0748189687729" name="ul. Wąwozowa- ul.Rosoła" spot="1" number="6446" bikes="3" bike_racks="14" terminal_type="unknown" bike_numbers="62386,64593,63202" />
<place uid="220688" lat="52.2011367425548" lng="20.9353065490723" name="al. Jerozolimskie - rejon ulicy Popularnej" spot="1" number="6447" bikes="2" bike_racks="14" terminal_type="unknown" bike_numbers="64414,62416" />
<place uid="220693" lat="52.20575586928424" lng="20.916021466255184" name="PKP Włochy" spot="1" number="6448" bikes="3" bike_racks="14" terminal_type="unknown" bike_numbers="66829,66736,62512" />
<place uid="220702" lat="52.1375116703874" lng="21.0504108667374" name="ul. Stryjeńskich- ul. Belgradzka" spot="1" number="6449" bikes="1" bike_racks="14" terminal_type="unknown" bike_numbers="60387" />
<place uid="220721" lat="52.192347569343056" lng="20.9596449136734" name="Al. Krakowska - UD Włochy" spot="1" number="6450" bikes="5+" bike_racks="14" terminal_type="unknown" bike_numbers="62232,60711,62304,62731,62274" />
<place uid="220910" lat="52.131459624889" lng="21.0561454296112" name="ul. Stryjeńskich - Wąwozowa" spot="1" number="6451" bikes="2" bike_racks="15" terminal_type="unknown" bike_numbers="67973,68021" />
<place uid="225425" lat="52.20833974071221" lng="20.96313714981079" name="ul. Szczęśliwicka-Drawska" spot="1" number="6452" bikes="3" bike_racks="15" terminal_type="unknown" bike_numbers="68228,61101,62357" />
<place uid="225574" lat="52.1945869512993" lng="20.9668707847595" name="DK Włochy" spot="1" number="6453" bikes="5+" bike_racks="15" terminal_type="unknown" bike_numbers="60813,66716,60413,68390,67919" />
<place uid="227891" lat="52.20169895374808" lng="20.98214328289032" name="ul. Sanocka – Pruszkowska" spot="1" number="6455" bikes="0" bike_racks="15" terminal_type="unknown" />
<place uid="227898" lat="52.142088024955676" lng="21.065892577171322" name="ul. Belgradzka - ul. Rosoła" spot="1" number="6456" bikes="5+" bike_racks="14" terminal_type="unknown" bike_numbers="60970,68211,66872,60420,63290" />
<place uid="227964" lat="52.2169154072792" lng="20.9710550308228" name="ul. Szczęśliwicka - APS" spot="1" number="6457" bikes="1" bike_racks="15" terminal_type="unknown" bike_numbers="63569" />
<place uid="237422" lat="52.17563578556543" lng="20.99589228630066" name="ul. Cybernetyki" spot="1" number="6458" bikes="1" bike_racks="16" terminal_type="unknown" bike_numbers="62339" />
<place uid="243964" lat="52.24188026424411" lng="21.024232506752014" name="ul. Lipowa-Dobra 1" spot="1" number="63881" bikes="5+" bike_racks="18" terminal_type="unknown" bike_numbers="68194,61126,64981,62351,61016" />
<place uid="245056" lat="52.2557858878398" lng="21.0102474689484" name="ul. Wybrzeże Gdańskie- Sanguszki- Skwer 1 Dywizji Pancernej 1" spot="1" number="64081" bikes="5+" bike_racks="13" terminal_type="unknown" bike_numbers="64542,62320,63277,63617,61058" />
<place uid="245160" lat="52.23871689826441" lng="21.05082929134369" name="Rondo Waszyngtona-Stadion Narodowy 1" spot="1" number="63741" bikes="4" bike_racks="22" terminal_type="unknown" bike_numbers="68242,63034,60417,60521" />
<place uid="245394" lat="52.23903554451021" lng="20.94291865825653" name="ul. Jana Olbrachta - Górczewska" spot="1" number="6459" bikes="5+" bike_racks="15" terminal_type="unknown" bike_numbers="60695,64993,67967,63839,64242" />
<place uid="245533" lat="52.2367984024124" lng="20.97236394882202" name="ul. Leszno - ul. Młynarska" spot="1" number="6460" bikes="1" bike_racks="15" terminal_type="unknown" bike_numbers="63828" />
<place uid="245672" lat="52.208684902999" lng="20.9464645385742" name="Miasteczko Orange" spot="1" number="6461" bikes="1" bike_racks="20" terminal_type="unknown" bike_numbers="61427" />
<place uid="245673" lat="52.2082641333771" lng="20.9456920623779" name="Miasteczko Orange 1" spot="1" number="64611" bikes="0" bike_racks="20" terminal_type="unknown" />
<place uid="246156" lat="52.20995376226247" lng="21.00681960582733" name="Al. Niepodległości – Batorego 1" spot="1" number="64201" bikes="1" bike_racks="10" terminal_type="unknown" bike_numbers="60781" />
<place uid="246276" lat="52.1492561531476" lng="21.0453656315804" name="Metro Imielin - Ratusz Ursynów 1" spot="1" number="63441" bikes="0" bike_racks="7" terminal_type="unknown" />
<place uid="246394" lat="52.23332256001735" lng="20.965754985809323" name="ul. Wolska - ul. Płocka" spot="1" number="6462" bikes="5+" bike_racks="15" terminal_type="unknown" bike_numbers="68150,60590,63872,60739,63718" />
<place uid="288046" lat="52.22062915307417" lng="20.972299575805664" name="EuroCentrum" spot="1" number="6467" bikes="1" bike_racks="15" terminal_type="unknown" bike_numbers="68274" />
<place uid="290957" lat="52.28584837775539" lng="20.940569043159485" name="Metro Wawrzyszew" spot="1" number="6473" bikes="5+" bike_racks="16" terminal_type="unknown" bike_numbers="60887,60734,60669,63930,68102" />
<place uid="299490" lat="52.246554" lng="21.017468" name="Mariensztat" spot="1" number="6466" bikes="2" bike_racks="15" terminal_type="unknown" bike_numbers="62843,60308" />
<place uid="303279" lat="52.237166339550825" lng="21.043753623962402" name="ul. Wybrzeże Szczecińskie - Stadion Narodowy" spot="1" number="6354" bikes="5+" bike_racks="23" terminal_type="unknown" bike_numbers="64482,63408,63205,62865,60577" />
<place uid="314694" lat="52.24635392336338" lng="21.068853735923767" name="ul. Grochowska - Urząd Dzielnicy Praga - Południe" spot="1" number="6474" bikes="5+" bike_racks="12" terminal_type="unknown" bike_numbers="62543,60655,68324,66961,67995" />
<place uid="314695" lat="52.224996515133036" lng="21.0712730884552" name="ul. Afrykańska - Egipska" spot="1" number="6475" bikes="1" bike_racks="12" terminal_type="unknown" bike_numbers="62410" />
<place uid="314696" lat="52.228289005239326" lng="21.085622906684872" name="ul. Gen. R. Abrahama" spot="1" number="6476" bikes="5+" bike_racks="12" terminal_type="unknown" bike_numbers="66879,64653,60495,67002,66801" />
<place uid="314697" lat="52.22966573260081" lng="21.106356382369995" name="ul. Rechniewskiego - Nowaka - Jeziorańskiego" spot="1" number="6477" bikes="5+" bike_racks="12" terminal_type="unknown" bike_numbers="67958,62548,68253,60997,60959" />
<place uid="314698" lat="52.24263904435865" lng="21.102038025856018" name="Pl. Szembeka" spot="1" number="6478" bikes="5+" bike_racks="12" terminal_type="unknown" bike_numbers="63591,60567,66819,60986,60678" />
<place uid="314699" lat="52.22675779769572" lng="20.942344665527344" name="ul. Redutowa" spot="1" number="6479" bikes="5+" bike_racks="12" terminal_type="unknown" bike_numbers="60913,68383,68375,68114,60572" />
<place uid="314700" lat="52.20555533353896" lng="21.02306306362152" name="ul. Puławska - Dworkowa" spot="1" number="6480" bikes="5+" bike_racks="15" terminal_type="unknown" bike_numbers="62281,62708,67982,67983,60323" />
<place uid="314701" lat="52.201600320719834" lng="21.035878658294674" name="ul. Jana III Sobieskiego - Chełmska" spot="1" number="6481" bikes="5+" bike_racks="15" terminal_type="unknown" bike_numbers="60976,67980,60255,67906,63857" />
<place uid="314702" lat="52.19951911278353" lng="21.05130672454834" name="ul. Czerniakowska - ZUS" spot="1" number="6482" bikes="5+" bike_racks="15" terminal_type="unknown" bike_numbers="62373,61046,63322,68205,62171" />
<place uid="314703" lat="52.177892456900445" lng="21.049649119377136" name="ul. Św. Bonifacego - Pętla Stegny " spot="1" number="6483" bikes="3" bike_racks="15" terminal_type="unknown" bike_numbers="67948,68202,61128" />
<place uid="314705" lat="52.18887153573278" lng="21.01761817932129" name="Metro Wierzbno" spot="1" number="6484" bikes="3" bike_racks="15" terminal_type="unknown" bike_numbers="62853,60290,61092" />
<place uid="314707" lat="52.199288957421864" lng="21.012194752693176" name="Metro Racławicka" spot="1" number="6485" bikes="3" bike_racks="15" terminal_type="unknown" bike_numbers="62527,63819,66909" />
<place uid="314708" lat="52.18187918241075" lng="21.056467294692993" name="ul. Jana III Sobieskiego - rejon ul. Św. Bonifacego" spot="1" number="6486" bikes="5+" bike_racks="15" terminal_type="unknown" bike_numbers="60960,68191,63019,67934,60604" />
<place uid="314709" lat="52.207307525111965" lng="21.04801297187805" name="ul. Czerniakowska - rejon ul. J. Gagarina" spot="1" number="6487" bikes="4" bike_racks="15" terminal_type="unknown" bike_numbers="63327,61018,67996,62789" />
<place uid="314711" lat="52.2005646607065" lng="20.893737673759457" name="UD Ursus" spot="1" number="6488" bikes="5+" bike_racks="15" terminal_type="unknown" bike_numbers="62722,67960,64641,66972,68103" />
<place uid="314713" lat="52.19596472349465" lng="20.884934663772583" name="PKP Ursus" spot="1" number="6489" bikes="2" bike_racks="12" terminal_type="unknown" bike_numbers="60303,60366" />
<place uid="314717" lat="52.19063753946811" lng="20.900035500526428" name="ul. Skoroszewska - Prystora" spot="1" number="6491" bikes="5+" bike_racks="15" terminal_type="unknown" bike_numbers="63193,62560,60733,64244,62615" />
<place uid="314718" lat="52.19164712275148" lng="20.868959426879883" name="PKP Ursus Niedźwiadek" spot="1" number="6492" bikes="5+" bike_racks="15" terminal_type="unknown" bike_numbers="60512,67051,62378,62922,62316" />
<place uid="315807" lat="52.17031274575778" lng="21.068408489227295" name="ul. Jana III Sobieskiego - Wilanowska " spot="1" number="6493" bikes="5+" bike_racks="15" terminal_type="unknown" bike_numbers="63310,61020,60435,63074,63386" />
<place uid="315808" lat="52.15923035794532" lng="21.08649730682373" name="ul. Przyczółkowa - Branickiego " spot="1" number="6494" bikes="4" bike_racks="15" terminal_type="unknown" bike_numbers="60539,62119,68259,68246" />
<place uid="319811" lat="52.241344840165176" lng="20.92921257019043" name="Wola Park" spot="1" number="6495" bikes="4" bike_racks="20" terminal_type="unknown" bike_numbers="61025,60674,63798,68225" />
<place uid="325118" lat="52.231834238039944" lng="21.104929447174072" name="Atrium Promenada" spot="1" number="6498" bikes="5+" bike_racks="15" terminal_type="unknown" bike_numbers="68125,64924,64674,62998,60920" />
<place uid="325119" lat="52.30273849910207" lng="21.058843731880188" name="Atrium Targówek" spot="1" number="6496" bikes="5+" bike_racks="15" terminal_type="unknown" bike_numbers="64525,64759,63978,62669,62325" />
<place uid="328834" lat="52.164775187347715" lng="21.10926389694214" name="Rondo Vogla - Syta" spot="1" number="6499" bikes="5+" bike_racks="15" terminal_type="unknown" bike_numbers="64441,60415,60281,60740,66831" />
<place uid="330138" lat="52.156778566238266" lng="21.076213717460632" name="Al. Rzeczypospolitej / ul. Branickiego" spot="1" number="6497" bikes="5+" bike_racks="15" terminal_type="unknown" bike_numbers="60362,62311,64439,62994,62131" />
<place uid="336855" lat="52.163310893005075" lng="20.992426872253418" name="Central Park Ursynów" spot="1" number="6353" bikes="0" bike_racks="15" terminal_type="unknown" />
<place uid="346273" lat="52.18735212442676" lng="21.061735153198242" name="Sadyba Best Mall" spot="1" number="6324" bikes="5+" bike_racks="15" terminal_type="unknown" bike_numbers="64947,66762,68347,60259,62547" />
<place uid="346490" lat="52.239189939291" lng="20.8987534046173" name="Pętla Os. Górczewska" spot="1" number="6334" bikes="5+" bike_racks="15" terminal_type="unknown" bike_numbers="62476,67035,62318,60400,68377" />
<place uid="346491" lat="52.252567685245424" lng="20.91468572616577" name="Radiowa - Fontanna" spot="1" number="6333" bikes="5+" bike_racks="15" terminal_type="unknown" bike_numbers="68339,62744,62264,67049,61019" />
<place uid="346994" lat="52.23438373925318" lng="20.99907875061035" name="Spektrum Tower" spot="1" number="6454" bikes="0" bike_racks="11" terminal_type="unknown" />
<place uid="365619" lat="52.2324" lng="21.0127" name="6408" bikes="1" bike_numbers="62418" />
</city>
